[
    {
      "id": 0,
      "name": "Diputacion",
      "latitude": "42.238427",
      "longitude": "-8.716431",
      "country_id": 0,
      "zone_id": 0,
      "city_id": 0,
      "subcategory_id": 0,
      "picture_url": "https://www.google.com/maps/place/42%C2%B014'18.3%22N+8%C2%B042'59.2%22W/@42.2384282,-8.7170817,18z/data=!4m6!3m5!1s0x0:0x0!7e2!8m2!3d42.2384266!4d-8.7164315"
    },
	
	{
      "id": 1,
      "name": "Monumento Elduayen",
      "latitude": "42.2407839",
      "longitude": "-8.7221864",
      "country_id": 0,
      "zone_id": 1,
      "city_id": 0,
      "subcategory_id": 0,
      "picture_url": "https://www.google.com/maps/place/42%C2%B014'26.8%22N+8%C2%B043'19.9%22W/@42.2407856,-8.7231055,202m/data=!3m2!1e3!4b1!4m5!3m4!1s0x0:0x0!8m2!3d42.2407839!4d-8.7221864"
    },
	
	{
      "id": 2,
      "name": "Museo Marco",
      "latitude": "42.236105",
      "longitude": "-8.720989",
      "country_id": 0,
      "zone_id": 2,
      "city_id": 0,
      "subcategory_id": 0,
      "picture_url": "https://www.google.com/maps/place/MARCO/@42.2361025,-8.7213906,117m/data=!3m1!1e3!4m5!3m4!1s0xd2f626a677a5749:0x2bf3edcb59caa0c9!8m2!3d42.2360244!4d-8.7210289"
    },
	
	{
      "id": 3,
      "name": "Naviera",
      "latitude": "42.242363",
      "longitude": "-8.723717",
      "country_id": 0,
      "zone_id": 3,
      "city_id": 0,
      "subcategory_id": 0,
      "picture_url": "https://www.google.com/maps/place/Nabia+Naviera+Vigo/@42.2423284,-8.724169,49m/data=!3m1!1e3!4m5!3m4!1s0xd2f624059c3cfe5:0x7f6d19f95beed7d5!8m2!3d42.2423922!4d-8.7237252"
    },
	
	{
      "id": 4,
      "name": "Dinoseto",
      "latitude": "42.238076",
      "longitude": "-8.725536",
      "country_id": 0,
      "zone_id": 4,
      "city_id": 0,
      "subcategory_id": 0,
      "picture_url": "https://www.google.com/maps/place/Dinoseto/@42.2381073,-8.7277294,481m/data=!3m2!1e3!4b1!4m5!3m4!1s0xd2f626aaecd6dad:0x9c3fc563d4a522dc!8m2!3d42.2381033!4d-8.7255407"
    }
  ]